BR,RT,DAY,STOP,NEW BR,NEW RT,NEW DAY,NEW STOP,CUST,CUST NAME,HOUSE NUMBER,ADDRESS,CITY,ZIP,EST DATE,BIG 5 AVG,COMP AVG,Latitude,Longitude,Machine,Companion,NEW DIST
650,2,6,7,,2,6,7,65050465,GREEN LEAF RESTAURANT,11313,YORK ROAD,COCKEYSVILLE,21030,11/2/2004,312.51,0,39.4942353,-76.6487905,312.51,0,16
650,2,6,8,,2,6,8,650982,FUSION,10752,YORK ROAD,COCKEYSVILLE,21030-2121,3/12/2013,279.69,0,39.4809764,-76.64424812,279.69,0,168
650,2,7,2,,2,7,2,650437,VITO'S RESTAURANT,10249,YORK ROAD,COCKEYSVILLE,21030,8/27/2007,526.76,136.7,39.47063214285714,-76.639122,526.76,136.7,17
650,2,7,4,,2,7,4,6501054,LA TOLTECA COCKEYSVILLE,10010,YORK ROAD,COCKEYSVILLE,21030-3304,9/16/2013,274.95666666666665,0,39.463020331158326,-76.6360408,274.95666666666665,0,4
650,2,6,5,,2,6,5,226500031,MISSION BBQ - HUNT VALLEY,128,SHAWAN ROAD,HUNT VALLEY,21030,12/19/2022,623.5533333333333,98.45,39.49583147927272,-76.65670493,623.5533333333333,98.45,1
650,2,6,6,,2,6,6,226500027,IZAKAYA 68,100,SHAWAN ROAD,HUNT VALLEY,21030,9/5/2022,338.11,0,39.495881,-76.655815,338.11,0,7
650,3,3,2,,3,3,2,65092638,DING HOW TIMONIUM,12237,TULLAMORE ROAD,TIMONIUM,21093-0000,4/8/1997,165,0,39.45879322,-76.6652561,165,0,21
650,3,3,3,,3,3,3,166500234,LIBERATORE'S RISTORANTE & CATERING TIMONIUM ,9515,DEERECO ROAD,TIMONIUM,21093,9/20/2016,644.1066666666666,0,39.45496378112544,-76.64205275,644.1066666666666,0,27
650,2,7,5,,2,7,5,156500107,ROYAL KITCHEN,9832,YORK ROAD,COCKEYSVILLE,21030-4914,3/26/2015,118.33333333333331,0,39.45989725,-76.63510257,118.33333333333331,0,6
650,2,13,7,,2,13,7,6501012,NEW LIFE HEALTHY LIVING,7600,CLAYS LANE,WINDSOR MILL ,21244-2003,5/31/2013,0,0,39.3363557,-76.7639144,0,0,118
650,2,7,3,,2,7,3,176500023,MIKU SUSHI & STEAKHOUSE,584,CRANBROOK ROAD,COCKEYSVILLE,21030-3702,6/27/2017,225,0,39.47140137288136,-76.61977025,225,0,17
650,2,7,6,,2,7,6,65092857,EDO SUSHI TIMONIUM,53,EAST PADONIA ROAD,TIMONIUM,21093,11/19/1997,184.25666666666666,0,39.456465,-76.63062143,184.25666666666666,0,2
650,2,7,7,,2,7,7,156500046,CUVINO,61,EAST PADONIA ROAD,TIMONIUM,21093-2346,2/23/2015,597.9633333333333,0,39.455713,-76.6295927,597.9633333333333,0,20
650,2,7,8,,2,7,8,650466,NAUTILUS DINER,2047,YORK ROAD,TIMONIUM,21093-4230,2/26/2008,668.4333333333333,9.216666666666667,39.438099214285714,-76.62527421,668.4333333333333,9.216666666666667,162
650,2,8,2,,2,8,2,216500009,KUNG FU 12 SZECHUAN - TIMONIUM,1427,YORK ROAD,TIMONIUM,21093,2/15/2021,464.9666666666667,0,39.42002236363636,-76.61624127,464.9666666666667,0,41
650,1,6,5,,1,6,5,186500025,THAI RAINBOW RESTAURANT,750,CONCOURSE CIRCLE,MIDDLE RIVER,21220-2995,9/6/2018,200.48333333333332,9.116666666666667,39.35957835,-76.40695746,200.48333333333332,9.116666666666667,40
650,1,6,6,,1,6,6,166500248,VINCE’S CRAB HOUSE,610,COMPASS ROAD,MIDDLE RIVER,21220,11/23/2016,294.6333333333333,10.416666666666666,39.3433596,-76.44796,294.6333333333333,10.416666666666666,360
650,1,6,2,,1,6,2,650389,KOBE JAPANESE STEAK HOUSE,8165,HONEYGO BOULEVARD,NOTTINGHAM,21236-8208,12/29/2006,373.3666666666667,0,39.371664548773886,-76.46578995,373.3666666666667,0,10
650,1,6,1,,1,6,1,196500028,AKIRA RAMEN ,8133,HONEYGO BOULEVARD,WHITE MARSH,21236,9/17/2019,226.98333333333332,0,39.37162837898192,-76.46624521,226.98333333333332,0,1
650,1,5,3,,1,5,3,216500016,PHO SAIGON HANOI ,9613,HARFORD ROAD,PARKVILLE,21234-2150,5/20/2021,315,0,39.39550465,-76.52192362,315,0,18
650,3,15,2,,3,15,2,166500232,LAS ESPERANZAS CAFÉ 2,5725,RITCHIE HIGHWAY,BROOKLYN PARK,21225-3645,9/15/2016,379.98333333333335,0,39.21745259183673,-76.61446689,379.98333333333335,0,4
650,3,15,3,,3,15,3,65092646,EL SALTO BALTIMORE,5513,RITCHIE HIGHWAY,BROOKLYN,21225-0000,5/15/1997,609.6866666666666,27.35,39.220309102040815,-76.6141615,609.6866666666666,27.35,30
650,1,15,8,,1,15,8,186500021,LAS ESPERANZAS CAFE 1,2159,WEST PATAPSCO AVENUE,BALTIMORE,21230,8/2/2018,220,0,39.25131603017408,-76.64483747,220,0,341
650,1,12,2,,1,12,2,216500021,WATER SONG ,21,EAST CROSS STREET,BALTIMORE,21230,6/10/2021,219.31666666666666,0,39.2765098,-76.6134963,219.31666666666666,0,2
650,1,12,3,,1,12,3,65047430,THAI ARROY,1019,LIGHT STREET,BALTIMORE,21230,9/10/2006,117.79666666666667,0,39.27794069,-76.61241294,117.79666666666667,0,1
650,1,12,1,,1,12,1,176500031,HERSH'S,1843,LIGHT STREET,BALTIMORE,21230,12/7/2017,303.69666666666666,36.5,39.26866085,-76.61164285,303.69666666666666,36.5,9
650,1,11,7,,1,11,7,196500032,MINDPUB,554,E. FORT AVE,BALTIMORE,21230,11/20/2019,205,0,39.27322685,-76.6054328,205,0,4
650,1,11,6,,1,11,6,226500030,AMMOORA RESTAURANT,751,KEY HIGHWAY,BALTIMORE,21230,10/3/2022,369.0566666666667,0,39.28054184473893,-76.6064769,369.0566666666667,0,9
650,1,12,4,,1,12,4,236500010,BE MORE THAI,1006,LIGHT STREET,BALTIMORE,21230,3/6/2023,264,0,39.278029450000005,-76.61279854,264,0,11
650,1,7,3,,1,7,3,650643,FRIENDLY'S DUNDALK,1579,MERRITT BOULEVARD,DUNDALK,21222,4/15/2010,115.31333333333332,43.99,39.2732412,-76.5025024,115.31333333333332,43.99,8
650,1,8,6,,1,8,6,6501046,MISSION BBQ CANTON,3701,BOSTON STREET,BALTIMORE,21224,8/15/2013,458.6,14.713333333333333,39.276884,-76.565012,458.6,14.713333333333333,12
650,1,8,5,,1,8,5,196500009,AKIRA RAMEN & IZAKAYA,3731,BOSTON STREET,BALTIMORE,21224,3/12/2019,256.1066666666667,0,39.276183,-76.56506201,256.1066666666667,0,1
650,1,8,4,,1,8,4,650826,K & D RESTAURANT,3706,EASTERN AVENUE,BALTIMORE ,21224,8/29/2011,213.85,8.85,39.2868183,-76.5661911,213.85,8.85,12
650,1,8,7,,1,8,7,196500013,PHO BAC,700,POTOMAC STREET,BALTIMORE,21224,4/19/2019,240.76333333333332,0,39.284185,-76.574468,240.76333333333332,0,8
650,1,9,1,,1,9,1,196500024,NAKED GRILL SUSHI AND YAKITORI,2748,LIGHTHOUSE POINT EAST,BALTIMORE,21224,8/26/2019,207,0,39.27815590782199,-76.5780814,207,0,4
650,1,9,2,,1,9,2,166500075,CHESAPEAKE WINE COMPANY,2400,BOSTON STREET,BALTIMORE,21224,2/29/2016,205,0,39.2812022,-76.5800877,205,0,3
650,1,8,8,,1,8,8,236500017,SCHOLA,2744,LIGHTHOUSE POINT EAST,BALTIMORE,21224,5/22/2023,246,0,39.27817486044775,-76.57806111,246,0,1
650,1,11,8,,1,11,8,650707,PARK BENCH,1749,BELT STREET,BALTIMORE,21230-4707,10/13/2010,0,0,39.26986825,-76.60544805,0,0,6
650,1,11,5,,1,11,5,156500184,TABRIZI'S,500,HARBORVIEW DRIVE,BALTIMORE,21230,6/17/2015,0,0,39.28154,-76.607698,0,0,2
650,1,12,6,,1,12,6,650868,PRATT STREET ALE HOUSE,206,WEST PRATT STREET,BALTIMORE,21201-2426,1/13/2012,703.7,253.7,39.28641,-76.61904,703.7,253.7,6
650,1,12,7,,1,12,7,650748,SUPANO'S STEAK HOUSE,110,WATER STREET,BALTIMORE,21202-1001,1/31/2011,225,0,39.2883776,-76.6130822,225,0,132
650,1,11,1,,1,11,1,166500111,TACO FIESTA,618,SOUTH EXETER STREET,BALTIMORE,21202,3/4/2016,355.90666666666664,76.85,39.28403330961741,-76.60041712,355.90666666666664,76.85,3
650,1,10,6,,1,10,6,650479,BLACK OLIVE RESTAURANT,901,SOUTH BOND STREET,BALTIMORE,21231-3339,5/12/2008,194.08,0,39.2805457,-76.594155,194.08,0,3
650,2,8,4,,2,8,4,226500018,AKIRA RAMEN - TOWSON,1,EAST JOPPA ROAD,TOWSON,21286,7/20/2022,356.86,0,39.401807,-76.601901,356.86,0,1
650,2,8,5,,2,8,5,216500041,SWEETGREEN -TOWSON,1,E. JOPPA ROAD,TOWSON,21286,11/30/2021,699.1233333333333,477.40666666666664,39.401807,-76.601901,699.1233333333333,477.40666666666664,3
650,2,8,7,,2,8,7,196500005,NEW GENERATION HOT POT,413,YORK ROAD,TOWSON,21204-5124,1/23/2019,478.2933333333333,0,39.3999508,-76.6027091,478.2933333333333,0,104
650,2,9,1,,2,9,1,65050330,GLORY DAYS GRILL - TOWSON,1220,EAST JOPPA ROAD,TOWSON,21286,10/23/2002,1074.2366666666667,481.0666666666666,39.3973766,-76.576458,1074.2366666666667,481.0666666666666,29
650,2,8,6,,2,8,6,236500020,KUNG FU 12 SUSHI,416,YORK ROAD,TOWSON,21204,6/19/2023,0,0,39.399901,-76.6023893,0,0,1
650,2,10,4,,2,10,4,236500021,PURE RAW JUICE,6809,YORK ROAD,TOWSON,21212-1510,7/17/2023,246,0,39.37776802040816,-76.60858559,246,0,98
650,1,9,3,,1,9,3,146500261,KATANA SUSHI BALTIMORE,845,SOUTH MONTFORD AVENUE,BALTIMORE,21224-3643,12/16/2014,175,0,39.2821105,-76.58237485,175,0,2
650,1,9,4,,1,9,4,196500033,NIHAO,2322,BOSTON STREET,BALTIMORE,21224-3601,10/9/2019,663.0866666666666,123.26666666666667,39.28296605,-76.58380165,663.0866666666666,123.26666666666667,9
650,1,10,4,,1,10,4,176500002,PENNY BLACK,1800,THAMES STREET,BALTIMORE,21231,2/17/2017,184,0,39.28210535,-76.5909991,184,0,2
650,1,10,5,,1,10,5,650778,THAMES STREET OYSTER,1728,THAMES STREET,BALTIMORE,21231,4/18/2011,556.67,0,39.281952,-76.59247543,556.67,0,3
650,1,10,3,,1,10,3,156500195,TWIST FELLS POINT,723,SOUTH BROADWAY,BALTIMORE,21231-3407,6/22/2015,241.1333333333333,0,39.28292145,-76.59281426,241.1333333333333,0,2
650,1,9,7,,1,9,7,650432,EL SALVADOR RESTAURANT,207,SOUTH BROADWAY,BALTIMORE,21231-2406,8/6/2007,393.7033333333333,0,39.28899655,-76.59328361,393.7033333333333,0,1
650,1,9,8,,1,9,8,166500229,ANGIE'S SEAFOOD,1727,EAST PRATT STREET,BALTIMORE,21231-1819,8/26/2016,470.50666666666666,0,39.289230775510205,-76.59218398,470.50666666666666,0,3
650,1,11,2,,1,11,2,650938,GERMANO'S TRATTORIA,300,SOUTH HIGH STREET,BALTIMORE,21202-4333,10/15/2012,0,0,39.286175,-76.601852,0,0,1
650,1,13,6,,1,13,6,236500028,NOONA'S PIZZA,1203,WEST MOUNT ROYAL AVENUE,BALTIMORE,21217,11/16/2023,264.49666666666667,27.98333333333333,39.30713524489796,-76.6201328,264.49666666666667,27.98333333333333,4
650,1,11,4,,1,11,4,196500020,AMICCIS,231,SOUTH HIGH STREET,BALTIMORE,21202-4454,8/15/2019,715,0,39.286811615384615,-76.60201969,715,0,8
650,1,11,3,,1,11,3,65092620,LA TAVOLA,248,ALBEMARLE STREET,BALTIMORE,21202-4455,4/8/1997,440.15666666666664,90.76666666666667,39.28647964864865,-76.60263603,440.15666666666664,90.76666666666667,1
650,1,10,2,,1,10,2,216500001,ASAHI SUSHI,514,SOUTH BROADWAY,BALTIMORE,21231,1/4/2021,0,0,39.28503015,-76.593912,0,0,3
650,1,8,3,,1,8,3,236500009,OVENBIRD BAKERY,300,3925 GOUGH STREET,BALTIMORE,21224,3/1/2023,518.2833333333333,164,39.289027,-76.557219,518.2833333333333,164,9
650,1,10,7,,1,10,7,246500002,ATTMAN'S BALTIMORE,1401,POINT STREET,BALTIMORE,21231,1/8/2024,458.0333333333333,94.7,39.28032546464647,-76.59759664,458.0333333333333,94.7,153
650,1,10,1,,1,10,1,216500032,LITTLE DONNA'S ,1812,BANK STREET,BALTIMORE,21231-2506,9/8/2021,323.67333333333335,0,39.28689985,-76.59086451,323.67333333333335,0,4
650,1,9,5,,1,9,5,186500024,CHARMED KITCHEN,123,SOUTH CHESTER STREET,BALTIMORE,21231-2010,9/4/2018,249,0,39.28970355,-76.58714658,249,0,9
650,1,9,6,,1,9,6,206500015,FRESH EXPRESS,525,NORTH WOLFE STREET,BALTIMORE,21205-2110,12/14/2020,269,0,39.29673916326531,-76.59066073,269,0,9
650,1,13,1,,1,13,1,196500023,ROD DEE THAI,340,NORTH CHARLES STREET,BALTIMORE,21201,8/19/2019,160,0,39.29374397058824,-76.61557406,160,0,1
650,1,13,2,,1,13,2,65093622,SOTTO SOPRA,405,NORTH CHARLES STREET,BALTIMORE,21201-0000,7/12/1999,376.87666666666667,0,39.29426728571429,-76.61538898,376.87666666666667,0,6
650,1,13,3,,1,13,3,146500121,IGGIES RESTAURANT,818,NORTH CALVERT STREET,BALTIMORE,21202,8/13/2014,0,0,39.298976591836734,-76.61310622,0,0,4
650,1,13,4,,1,13,4,176500020,CAFE FILI,816,CATHEDRAL STREET,BALTIMORE,21201,6/5/2017,248.4033333333333,0,39.29877297959184,-76.61727961,248.4033333333333,0,3
650,1,13,5,,1,13,5,216500030,CENTRAL BAR ,885,NORTH HOWARD STREET,BALTIMORE,21201,8/27/2021,0,0,39.3005658,-76.61984411,0,0,8
650,1,15,3,,1,15,3,196500012,THE TILTED ROW,305,MC MECHEN STREET,BALTIMORE,21217,4/9/2019,547.87,0,39.3063278,-76.6285671,547.87,0,155
650,1,15,1,,1,15,1,6505398,ON THE HILL CAFE,1431,JOHN STREET,BALTIMORE,21217,6/21/2005,170.56666666666666,0,39.3084351,-76.6237386,170.56666666666666,0,5
650,1,13,7,,1,13,7,186500030,LE COMPTOIR DU VIN,1729,MARYLAND AVENUE,BALTIMORE,21201,10/25/2018,258.43333333333334,30.583333333333332,39.3094941,-76.6175814,258.43333333333334,30.583333333333332,37
650,1,14,8,,1,14,8,216500029,CHURCH BAR,2219,MARYLAND AVE,BALTIMORE,21218,8/10/2021,0,0,39.31489035,-76.61780823,0,0,9
650,1,14,1,,1,14,1,216500015,REMI'S ,300,W. 30TH STREET,BALTIMORE,21211,4/16/2021,0,0,39.3231862,-76.62315497,0,0,13
650,1,15,2,,1,15,2,226500021,BALTIMORE UNITY HALL,1505,EUTAW PLACE,BALTIMORE,21217,8/11/2022,0,0,39.3058539,-76.6279523,0,0,1
650,1,12,5,,1,12,5,236500015,VIDA TACO BAR,333,WEST CAMDEN STREET,BALTIMORE,21201,4/24/2023,88,0,39.285186333333336,-76.62013567,88,0,2
650,1,1,7,,1,1,7,196500014,ROOTS NATURAL KITCHEN,120,EAST MAIN STREET,NEWARK,19711,5/16/2019,503.89666666666665,0,39.68352895635361,-75.74798403,503.89666666666665,0,14
650,1,1,8,,1,1,8,65040669,NEWARK COUNTRY CLUB,300,WEST MAIN STREET,NEWARK,19711-3218,4/12/2006,175.26333333333332,0,39.68577046389783,-75.76333254,175.26333333333332,0,319
650,1,2,1,,1,2,1,650419,LA CUCINA RESTAURANT,103,NORTH WASHINGTON STREET,HAVRE DE GRACE,21078,5/16/2007,386.66333333333336,0,39.54785966321027,-76.089645,386.66333333333336,0,82
650,1,1,4,,1,1,4,226500025,FIESTA MAYA MEXICAN GRILL,200,PENCADER PLAZA,NEWARK,19711,9/21/2022,261.27,0,39.659172,-75.736935,261.27,0,29
650,2,6,4,,2,6,4,196500021,VINCES CRAB HOUSE,2108,FALLSTON ROAD,FALLSTON,21047-1442,8/23/2019,293.58666666666664,0,39.53285549593496,-76.44794715,293.58666666666664,0,184
650,2,6,3,,2,6,3,156500333,TACOS TOLTECA,2823,BELAIR ROAD,FALLSTON,21047,8/21/2015,416.6866666666666,93.41666666666667,39.48477335790216,-76.40085209,416.6866666666666,93.41666666666667,68
650,1,4,4,,1,4,4,226500014,RAVAGE DELI,9636,BELAIR ROAD,NOTTINGHAM,21236,7/11/2022,240,0,39.412228612244895,-76.46468682,240,0,4
650,1,4,2,,1,4,2,65023694,CHOPSTIX CAFE,5002,HONEYGO CENTER DRIVE,PERRY HALL ,21128,9/21/2004,245,0,39.4050555,-76.4434178,245,0,20
650,1,4,6,,1,4,6,196500015,EL SALTO - PERRY HALL,4335,EBENEZER ROAD,PERRY HALL ,21236-2143,5/16/2019,562.9,37.766666666666666,39.39763122857144,-76.47651831,562.9,37.766666666666666,1
650,1,6,3,,1,6,3,166500243,EDORRITO ASIAN BISTRO,5203,CAMPBELL BOULEVARD,NOTTINGHAM,21236,10/25/2016,246,0,39.36984250507985,-76.45448497,246,0,5
650,1,6,4,,1,6,4,166500236,LEDO PIZZA OF WHITE MARSH,5350,CAMPBELL BOULEVARD,NOTTINGHAM,21236-4914,9/26/2016,545.5166666666667,295.51666666666665,39.3677221,-76.4496147,545.5166666666667,295.51666666666665,38
650,1,4,5,,1,4,5,650721,FRIENDLY'S PERRY HALL,9551,BELAIR ROAD,NOTTINGHAM,21236-1509,12/3/2010,179.72333333333333,88.22,39.41006334693878,-76.46689202,179.72333333333333,88.22,17
650,1,4,7,,1,4,7,650890,YAMA SUSHI PERRY HALL,4347,EBENEZER ROAD,NOTTINGHAM,21236-2143,5/4/2012,190,0,39.39758905714286,-76.47637483,190,0,171
650,1,4,3,,1,4,3,166500206,TASTE OF TAJ,9810,BELAIR ROAD,PERRY HALL ,21128,4/29/2016,179,0,39.4191206,-76.45756043,179,0,10
650,1,1,3,,1,1,3,226500017,PLAZA AZTECA,928,BEAR CORBITT ROAD,NEWARK,19702,7/11/2022,1060.6366666666665,0,39.631134,-75.660544,1060.6366666666665,0,73
650,1,1,2,,1,1,2,166500225,HIBACHI GRILL & SUPREME SUSHI BUFFET,4403,KIRKWOOD HIGHWAY,WILMINGTON,19808,7/29/2016,729.1733333333333,0,39.72686892857143,-75.65189109,729.1733333333333,0,107
650,1,1,5,,1,1,5,216500002,KUNGFU HOTPOT ,230,EAST MAIN STREET,NEWARK,19711,1/4/2021,336.4433333333333,0,39.68375608623192,-75.74510077,336.4433333333333,0,2
650,1,1,6,,1,1,6,216500004,FREDDY'S WINGS AND WRAPS ,174,EAST MAIN STREET,NEWARK,19711-7309,1/11/2021,220,0,39.683651074852165,-75.74628158,220,0,2
650,1,1,1,,1,1,1,236500023,MISSION BBQ - WILMINGTON,3662,CONCORD PIKE,WILMINGTON,19803,7/17/2023,550.0433333333333,80.16,39.80402653837631,-75.54830195,550.0433333333333,80.16,124
650,1,2,2,,1,2,2,65094609,LEE'S HUNAN,971,BEARDS HILL ROAD,ABERDEEN,21001,5/3/1990,244.20666666666665,0,39.5246324,-76.1801638,244.20666666666665,0,4
650,1,2,3,,1,2,3,650820,LA TOLTECA ABERDEEN,984,HOSPITALITY WAY,ABERDEEN,21001-1779,8/25/2011,666.69,0,39.52385341625908,-76.18447638,666.69,0,86
650,1,2,5,,1,2,5,6501052,LEE'S ASIAN BISTRO,1408,HANDLIR DRIVE,BEL AIR,21015-6600,9/12/2013,222.71666666666667,12.716666666666667,39.48095684052067,-76.25439228,222.71666666666667,12.716666666666667,98
650,1,3,4,,1,3,4,216500019,VENETIAN ITALIAN EATERY,1901,TREE TOP DRIVE,EDGEWOOD,21040-1632,6/4/2021,541.4933333333333,20.833333333333332,39.434716,-76.313933,541.4933333333333,20.833333333333332,28
650,1,3,5,,1,3,5,156500405,LA TOLTECA JOPPA,1411,MOUNTAIN ROAD,EDGEWOOD,21085,12/3/2015,519.23,0,39.43920765,-76.34498209,519.23,0,445
650,1,3,3,,1,3,3,176500019,ISLAND SPICE CUISINE,2120,EMMORTON PARK ROAD,EDGEWOOD,21040-1066,5/24/2017,612.0166666666667,325.25,39.45267831104635,-76.30969917,612.0166666666667,325.25,21
650,2,4,3,,2,4,3,650596,CHOPSTIX GOURMET FOREST HILL,1523,ROCK SPRING ROAD,FOREST HILL,21050-2855,11/25/2009,269.32,0,39.56143385,-76.37054512,269.32,0,2
650,1,2,4,,1,2,4,650827,LA TOLTECA BEL AIR,2350,EAST CHURCHVILLE ROAD,BEL AIR,21015-1721,9/7/2011,287.42333333333335,0,39.555704,-76.274603,287.42333333333335,0,85
650,2,4,2,,2,4,2,650740,ENOTRIA,2,NEWPORT DRIVE,FOREST HILL,21050-1642,1/19/2011,397.35,27.35,39.578479,-76.385217,397.35,27.35,23
650,2,4,4,,2,4,4,176500029,ECHO FREZCO FOREST HILL,1517,ROCK SPRING ROAD,FOREST HILL,21050,9/19/2017,368.6633333333333,9.216666666666667,39.5608485,-76.3695493,368.6633333333333,9.216666666666667,4
650,2,4,5,,2,4,5,176500006,KIYOMI SUSHI,1443,ROCK SPRING ROAD,BEL AIR,21014,3/3/2017,195,0,39.55745177777778,-76.36963822,195,0,498
650,2,5,2,,2,5,2,216500043,LEDO PIZZA OF BELAIR,331,BALTIMORE PIKE,BEL AIR,21014,12/21/2021,0,0,39.52984815,-76.3498868,0,0,437
650,2,5,4,,2,5,4,156500439,RAINBOW KING,554,BALTIMORE PIKE,BEL AIR,21014,12/21/2015,239.26,0,39.525434,-76.355616,239.26,0,5
650,2,6,2,,2,6,2,650657,FRIENDLY'S HARFORD MALL,696,BELAIR ROAD,BEL AIR,21014,6/7/2010,115.31333333333332,43.99,39.5081972,-76.3809161,115.31333333333332,43.99,32
650,1,2,8,,1,2,8,6501086,INDIA GARDEN,5,BEL AIR SOUTH PARKWAY,BEL AIR,21015,3/31/2014,149,0,39.49734305,-76.32561232,149,0,459
650,1,3,2,,1,3,2,650996,LEMON N' GINGER,3491,MERCHANT BOULEVARD,ABINGDON,21009,3/29/2013,347.62,0,39.46703525,-76.30778879,347.62,0,17
650,1,5,8,,1,5,8,65065391,CHINA WOK,7916,HONEYGO BOULEVARD,NOTTINGHAM,21236,6/15/2004,181,0,39.3741892,-76.4722308,181,0,6
650,1,2,7,,1,2,7,236500011,LATITUDE SEAFOOD,5,BEL AIR SOUTH PARKWAY,BEL AIR,21015-6094,3/6/2023,1663.4333333333332,674.4333333333333,39.49734305,-76.32561232,1663.4333333333332,674.4333333333333,1
650,2,5,5,,2,5,5,246500003,AKIRA RAMEN BEL AIR,111,NORTH TOLLGATE ROAD,BEL AIR,21014,1/9/2024,92.23666666666666,0,39.52408513,-76.36004888,92.23666666666666,0,17
650,1,16,1,,1,16,1,246500007,FLOCK,1415,WASHINGTON BOULEVARD,BALTIMORE,21230-1830,1/25/2024,106.85,31.516666666666666,39.2792382,-76.63690598,106.85,31.516666666666666,0
650,3,6,3,,3,6,3,650585,KATANA SUSHI MT. AIRY,1311,SOUTH MAIN STREET,MT AIRY,21771-5330,10/21/2009,210,0,39.3667765,-77.16451552,210,0,459
650,3,6,2,,3,6,2,146500095,OLDE TOWN RESTAURANT,206,SOUTH MAIN STREET,MT AIRY,21771,7/23/2014,185.73333333333332,0,39.376213073789934,-77.15518158,185.73333333333332,0,465
650,3,6,4,,3,6,4,650729,MAMMA ANGELA,5,RIDGESIDE COURT,MT AIRY,21771,11/23/2010,100.06666666666666,0,39.36373987281489,-77.16465033,100.06666666666666,0,17
650,3,6,5,,3,6,5,650968,LEDO PIZZA OF MT. AIRY,520,EAST RIDGEVILLE BOULEVARD,MT AIRY,21771-5252,1/17/2013,175,0,39.36452093503843,-77.16234529,175,0,390
650,2,14,3,,2,14,3,176500034,IHOP CATONSVILLE,5525,BALTIMORE NATIONAL PIKE,CATONSVILLE,21228-1553,12/22/2017,180.6,90.3,39.2897385,-76.7225835,180.6,90.3,379
650,3,7,1,,3,7,1,236500022,LOS AZTECAS II,1604,RIDGESIDE DRIVE,MT AIRY,21771-5240,7/19/2023,523.7266666666666,0,39.36351145747056,-77.16311385,523.7266666666666,0,212
650,3,8,5,,3,8,5,216500006,PHO 5UP,11200,SCAGGSVILLE ROAD,LAUREL,20723,2/3/2021,237.32333333333332,0,39.146139,-76.903038,237.32333333333332,0,233
650,3,8,4,,3,8,4,6501075,GINZA OF TOKYO,7530,MONTPELIER ROAD,LAUREL,20723,1/20/2014,299.5566666666667,0,39.16081786,-76.89267848,299.5566666666667,0,330
650,3,8,2,,3,8,2,650796,ASIAN PALACE,10801,HICKORY RIDGE ROAD,COLUMBIA,21044,6/8/2011,246.5933333333333,0,39.20951865,-76.885607,246.5933333333333,0,145
650,3,11,7,,3,11,7,206500001,AKIRA RAMEN - COLUMBIA ,10101,TWIN RIVERS ROAD,COLUMBIA,21044,1/15/2020,522.1033333333334,36.46666666666667,39.21538030128092,-76.86498975,522.1033333333334,36.46666666666667,20
650,3,11,6,,3,11,6,186500020,BONCHON COLUMBIA,10100,TWIN RIVERS ROAD,COLUMBIA,21044,7/3/2018,315.6166666666667,49.88333333333333,39.215878,-76.8650884,315.6166666666667,49.88333333333333,19
650,3,11,8,,3,11,8,206500002,URBAN HOT POT ,10100,TWIN RIVERS ROAD,COLUMBIA,21044,1/15/2020,373.41666666666663,76.15,39.215878,-76.8650884,373.41666666666663,76.15,55
650,3,11,4,,3,11,4,246500004,TAKUMI SUSHI & BAR - COLUMBIA,10300,LITTLE PATUXENT PARKWAY,COLUMBIA,21044,1/9/2024,0,0,39.2158379,-76.85999539,0,0,116
650,3,9,4,,3,9,4,6501076,IHOP JESSUP,7351,ASSATEAGUE DRIVE,JESSUP,20794,1/29/2014,179.16666666666666,89.58333333333333,39.1693664,-76.7865912,179.16666666666666,89.58333333333333,72
650,3,12,4,,3,12,4,176500030,IHOP COLUMBIA,8825,CENTRE PARK DRIVE,COLUMBIA,21045-2134,11/24/2017,171.58666666666664,85.79333333333332,39.22741605471845,-76.81483105,171.58666666666664,85.79333333333332,23
650,3,11,1,,3,11,1,216500014,DOK KHAO THAI EATERY,6000,MERRIWEATHER DRIVE,COLUMBIA,21044-3744,4/16/2021,854.4766666666666,71.7,39.206636,-76.8618812,854.4766666666666,71.7,47
650,3,11,3,,3,11,3,236500002,PETER CHANG,6000,MERRIWEATHER DRIVE,COLUMBIA,21044-3744,1/2/2023,618.2,0,39.206636,-76.8618812,618.2,0,11
650,3,11,2,,3,11,2,236500014,CLOVE & CARDAMOM,6000,MERRIWEATHER DRIVE,COLUMBIA,21044,5/8/2023,204.72666666666666,0,39.206636,-76.8618812,204.72666666666666,0,1
650,3,9,7,,3,9,7,166500223,BLACK FLAG BREWING COMPANY,9315,SNOWDEN RIVER PARKWAY,COLUMBIA,21046,7/19/2016,240.68333333333334,10.683333333333334,39.1744335,-76.83421667,240.68333333333334,10.683333333333334,44
650,3,9,8,,3,9,8,226500015,LOST ARK DISTILLING,9570,BERGER ROAD,COLUMBIA,21046,7/11/2022,259,0,39.1732566,-76.84434151,259,0,24
650,3,9,2,,3,9,2,166500220,THE HIDEOUT,9855,WASHINGTON BOULEVARD NORTH,LAUREL,20707,7/8/2016,538.85,74.85,39.115075,-76.832013,538.85,74.85,91
650,3,14,4,,3,14,4,65077242,HUNAN L' ROSE RESTAURANT,1131,ANNAPOLIS ROAD,ODENTON,21113,4/24/2006,376.43,0,39.08087262192928,-76.68850572,376.43,0,130
650,3,14,5,,3,14,5,166500224,THREE BROTHERS ITALIAN RESTAURANT ODENTON,1139,ANNAPOLIS ROAD,ODENTON,21113,7/20/2016,334.2966666666666,10.416666666666666,39.08105089240486,-76.68879928,334.2966666666666,10.416666666666666,35
650,3,14,3,,3,14,3,236500027,THE ALL AMERICAN STEAKHOUSE - ODENTON,1502,ANNAPOLIS ROAD,ODENTON,21113-1001,9/28/2023,1155.3166666666666,191.31666666666666,39.09700004092381,-76.72044919,1155.3166666666666,191.31666666666666,130
650,3,14,2,,3,14,2,236500016,PHO 5UP - ODENTON,2288,BLUE WATER BLVD ,ODENTON,21113,5/4/2023,246,0,39.10181955,-76.7186913,246,0,33
650,3,14,6,,3,14,6,6502791,FORTUNE COOKY RESTAURANT,7978,CRAIN HIGHWAY SOUTH,GLEN BURNIE ,21061,1/26/2006,226.76,0,39.131330380952384,-76.63882648,226.76,0,77
650,3,14,7,,3,14,7,650780,FRIENDLY'S CRAIN HIGHWAY,412,CRAIN HIGHWAY SOUTH,GLEN BURNIE,21061-3645,4/19/2011,81.58,27.123333333333335,39.159217155840864,-76.62832335,81.58,27.123333333333335,274
650,3,16,2,,3,16,2,650924,EAST MOON ASIAN BISTRO & SUSHI,7400,RITCHIE HIGHWAY,GLEN BURNIE ,21061,8/8/2012,210,0,39.167362,-76.622206,210,0,11
650,3,16,3,,3,16,3,176500028,MALI THAI RESTAURANT,7477,BALTIMORE ANNAPOLIS BOULEVARD,GLEN BURNIE ,21061,9/8/2017,210,0,39.16402421230792,-76.62399721,210,0,4
650,3,19,5,,3,19,5,650691,FRIENDLY'S PASADENA,4189,MOUNTAIN ROAD,PASADENA,21122,8/24/2010,102.22666666666666,37.446666666666665,39.12245557852816,-76.51562644,102.22666666666666,37.446666666666665,384
650,3,19,4,,3,19,4,236500026,PHO DENA ,4141,MOUNTAIN ROAD,PASADENA,21122-4455,9/21/2023,164,0,39.122646586953856,-76.5164538,164,0,105
650,3,15,8,,3,15,8,650782,FRIENDLY'S RITCHIE HIGHWAY,7134,RITCHIE HIGHWAY,GLEN BURNIE ,21061-2904,4/19/2011,132.1233333333333,65.07,39.17903824,-76.6154626,132.1233333333333,65.07,106
650,3,16,1,,3,16,1,146500170,SAKE JAPANESE RESTAURANT & SUSHI BAR,7315,GOVERNOR RITCHIE HIGHWAY,GLEN BURNIE ,21061-3104,9/18/2014,496.5433333333333,0,39.17061075,-76.620399,496.5433333333333,0,25
650,3,16,4,,3,16,4,650649,MI PUEBLO,7556,RITCHIE HIGHWAY,GLEN BURNIE ,21061-3717,5/5/2010,450.58666666666664,0,39.16054213873699,-76.62059097,450.58666666666664,0,25
650,3,15,7,,3,15,7,226500010,MI PUEBLITO,6914,RITCHIE HWY,GLEN BURNIE ,21061,6/9/2022,603.4966666666667,0,39.18628024320308,-76.6130124,603.4966666666667,0,100
650,3,17,2,,3,17,2,186500005,VILLA FLORES RESTAURANT,7693,BALTIMORE ANNAPOLIS BOULEVARD,GLEN BURNIE ,21060-7554,2/22/2018,299.92333333333335,0,39.15337984015706,-76.59669744,299.92333333333335,0,117
650,2,14,1,,2,14,1,650496,CITY VIEW RESTAURANT,6700,SECURITY BOULEVARD,WOODLAWN,21207-4038,7/21/2008,486.2,42.2,39.3130592,-76.7414199,486.2,42.2,175
650,1,15,7,,1,15,7,236500029,EDEN SPORTS BAR & GRILL,1401,BLOOMFIELD AVENUE,BALTIMORE,21227-1076,12/15/2023,73,0,39.261813,-76.666579,73,0,108
650,2,13,8,,2,13,8,650928,LAS VEGAS OF WOODLAWN,7091,SECURITY BOULEVARD,WOODLAWN,21244-2562,9/11/2012,240,0,39.31315761026151,-76.75389824,240,0,135
650,2,15,3,,2,15,3,226500012,THE CRAZY MASON MILKSHAKE BAR,8225,MAIN STREET,ELLICOTT CITY,21043,6/29/2022,314.93333333333334,17.933333333333334,39.26752456571269,-76.79843154,314.93333333333334,17.933333333333334,96
650,2,15,2,,2,15,2,186500038,UMI SUSHI,8167,MAIN STREET,ELLICOTT CITY,21043,12/28/2018,380,0,39.2672515,-76.797262,380,0,64
650,3,8,3,,3,8,3,650500,RANAZUL,6420,FREETOWN ROAD SUITE 120,COLUMBIA,21044-4062,9/2/2008,265.5833333333333,89.91666666666667,39.194886,-76.883458,265.5833333333333,89.91666666666667,163
650,3,3,5,,3,3,5,650422,STONE MILL GOURMET TO GO,10751,FALLS ROAD,LUTHERVILLE ,21093-3619,5/25/2007,327.25,0,39.419999,-76.66981,327.25,0,268
650,2,12,1,,2,12,1,6501084,EUROPE RESTAURANT,4147,LABYRINTH ROAD,BALTIMORE,21215-2202,2/17/2014,321.42333333333335,0,39.3592419,-76.70777212,321.42333333333335,0,76
650,2,12,2,,2,12,2,650639,DAVID CHU'S,7105,REISTERSTOWN ROAD,BALTIMORE ,21215-1424,4/9/2010,305,0,39.363587,-76.71166908,305,0,25
650,2,12,5,,2,12,5,196500001,PUNTA CANA RESTAURANT,1330,REISTERSTOWN ROAD,PIKESVILLE,21208,12/31/2018,0,0,39.3758082,-76.7248187,0,0,18
650,2,12,6,,2,12,6,176500032,BRAVO RESTAURANT,1430,REISTERSTOWN ROAD,PIKESVILLE,21208-3843,12/14/2017,283.39666666666665,0,39.3769146,-76.7255024,283.39666666666665,0,323
650,2,12,3,,2,12,3,186500034,DOMINO'S PIZZA PIKESVILLE #4629,607,REISTERSTOWN ROAD,PIKESVILLE,21208-5115,12/17/2018,195,0,39.369819,-76.7178578,195,0,90
650,3,14,8,,3,14,8,650661,LOS PORTALES,6938,AVIATION BOULEVARD,GLEN BURNIE ,21061-2576,6/11/2010,445,0,39.17533485,-76.64783684,445,0,175
650,3,13,3,,3,13,3,206500011,ROYAL SPICE ,810,NURSERY ROAD,LINTHICUM HEIGHTS,21090-1304,10/20/2020,278.88,35.85,39.22455946002723,-76.66242713,278.88,35.85,57
650,3,13,4,,3,13,4,156500201,TORO BRAVO,802,PINNACLE DRIVE,LINTHICUM HEIGHTS,21090,6/25/2015,315.58,0,39.21604575,-76.67763418,315.58,0,54
650,3,15,1,,3,15,1,650597,WILLY'S RESTAURANT,7271,BALTIMORE ANNAPOLIS BOULEVARD,GLEN BURNIE ,21061,12/21/2009,205.34,0,39.179696,-76.638466,205.34,0,55
650,3,13,5,,3,13,5,186500013,GLORY DAYS GRILL - LINTHICUM,1616,WEST NURSERY ROAD,LINTHICUM HEIGHTS,21090,5/15/2018,1350.9266666666665,880.5666666666666,39.2024611,-76.6832934,1350.9266666666665,880.5666666666666,131
650,2,9,3,,2,9,3,216500028,KABUTO - JOPPA ,8810,WALTHAM WOODS ROAD,PARKVILLE,21234,8/12/2021,374.9033333333333,38.56666666666666,39.400125,-76.541526,374.9033333333333,38.56666666666666,252
650,1,5,4,,1,5,4,650485,VALENTINO'S RESTAURANT,6627,HARFORD ROAD,BALTIMORE,21214-1306,6/4/2008,812.7166666666666,12.716666666666667,39.36275734693877,-76.55232414,812.7166666666666,12.716666666666667,43
650,1,5,5,,1,5,5,156500378,SILVER QUEEN CAFE,5427,HARFORD ROAD,BALTIMORE,21214-2217,10/13/2015,290.36,20.166666666666664,39.35173516,-76.56210951,290.36,20.166666666666664,15
650,1,5,6,,1,5,6,226500032,CAFE CAMPLI,4801,HARFORD ROAD,BALTIMORE,21214-2935,12/5/2022,300.8333333333333,60.833333333333336,39.3446876,-76.56740402,300.8333333333333,60.833333333333336,33
650,2,14,5,,2,14,5,650561,G.L. SHACKS CATONSVILLE,583,FREDERICK ROAD,CATONSVILLE,21228,5/20/2009,600.0766666666666,174.85,39.272648,-76.72835,600.0766666666666,174.85,194
650,2,14,2,,2,14,2,65035326,PHO 1,5764,BALTIMORE NATIONAL PIKE,CATONSVILLE,21228,8/28/2003,302.33666666666664,31.65,39.28775234693877,-76.73352155,302.33666666666664,31.65,388
650,2,14,4,,2,14,4,196500002,THAI HEAVEN RESTAURANT,6413,FREDERICK ROAD,CATONSVILLE,21228-3504,1/7/2019,230,0,39.275203,-76.717772,230,0,157
650,1,7,7,,1,7,7,650892,ROSARIO'S RESTAURANT,7301,PULASKI HIGHWAY,ROSEDALE,21237-2527,5/15/2012,863.9133333333332,0,39.310473,-76.529155,863.9133333333332,0,246
650,1,15,6,,1,15,6,236500006,TUERK HOUSE,730,ASHBURTON STREET,BALTIMORE,21216-4703,1/10/2023,386.2033333333333,0,39.2968731,-76.6616496,386.2033333333333,0,183
650,1,14,7,,1,14,7,216500031,SAKOON INDIAN FUSION,3105 B,ST. PAUL STREET,BALTIMORE,21218,9/7/2021,189,0,39.3171237,-76.6153514,189,0,43
650,1,14,5,,1,14,5,65040034,CHARLES VILLAGE PUB ,3107,SAINT PAUL STREET,BALTIMORE,21218-3841,3/14/2002,272.25666666666666,0,39.32615125,-76.61555284,272.25666666666666,0,13
650,1,14,4,,1,14,4,65086721,TAMBERS NIFTY FIFTY,3327,SAINT PAUL STREET,BALTIMORE,21218-3254,5/16/2006,185,0,39.329088600000006,-76.61568166,185,0,11
650,2,10,6,,2,10,6,166500205,CYPRIANA ,105,WEST 39TH STREET,BALTIMORE,21210,4/28/2016,827.2166666666666,88.21666666666667,39.33564751020408,-76.62062394,827.2166666666666,88.21666666666667,10
650,1,14,3,,1,14,3,226500016,KAJIKEN,7,EAST 33RD STREET,BALTIMORE,21218,7/15/2022,298.45,0,39.32798281632653,-76.61650902,298.45,0,12
650,1,14,6,,1,14,6,236500019,TOKI UNDERGROUND,2731,GREENMOUNT AVENUE,BALTIMORE,21218-4496,6/21/2023,277.18333333333334,31.183333333333334,39.3216132,-76.60929475,277.18333333333334,31.183333333333334,53
650,3,1,3,,3,1,3,186500027,DOMINO'S PIZZA CHAMBERSBURG #4776,1515,LINCOLN WAY EAST,CHAMBERSBURG,17202-3316,9/21/2018,205,0,39.925843,-77.616198,205,0,1060
650,3,1,1,,3,1,1,216500026,LEDO PIZZA OF CHAMBERSBURG,1300,LINCOLN WAY EAST,CHAMBERSBURG,17202,7/12/2021,266.1333333333333,41.13333333333333,39.926722,-77.626236,266.1333333333333,41.13333333333333,9
650,3,1,2,,3,1,2,216500042,DOMINO'S PIZZA CHAMBERSBURG #4775,408,E. QUEEN STREET,CHAMBERSBURG,17201,12/1/2021,244,0,39.93481,-77.65412371,244,0,1101
650,3,1,5,,3,1,5,650942,AKI JAPANESE STEAKHOUSE,1150,CARLISLE STREET,HANOVER,17331,10/17/2012,378.71,0,39.82084230921007,-76.99629061,378.71,0,1232
650,2,1,5,,2,1,5,650512,THE SODA JERK DINER,403,EAST MAIN STREET,HUMMELSTOWN,17036-1861,10/20/2008,750,0,40.26577853105634,-76.69750979,750,0,641
650,2,1,1,,2,1,1,206500013,SIMPLY GREEK,23,BRIARCREST SQUARE,HUMMELSTOWN,17033,10/22/2020,220,0,40.2694437,-76.6713176,220,0,103
650,2,2,2,,2,2,2,246500006,ICHIBAN,1870,FRUITVILLE PIKE,LANCASTER,17601,1/23/2024,142.13333333333333,42.46666666666667,40.072011,-76.32073,142.13333333333333,42.46666666666667,330
650,2,2,1,,2,2,1,216500037,MISSION BBQ - LANCASTER ,2002,FRUITVILLE PIKE,LANCASTER,17601-7200,11/17/2021,875.2533333333332,44.53333333333334,40.075607,-76.324402,875.2533333333332,44.53333333333334,371
650,2,1,3,,2,1,3,196500026,MISSION BBQ - CAMP HILL ,25,NORTH 32ND STREET,MECHANICSBURG,17011-2918,8/12/2019,1053.6333333333332,53.44,40.24076344897959,-76.93477571,1053.6333333333332,53.44,820
650,3,1,4,,3,1,4,216500022,J & J'S ASIAN RESTAURANT ,34,BALTIMORE STREET,GETTYSBURG,17325,7/1/2021,0,0,39.83000295,-77.2308216,0,0,701
650,2,1,4,,2,1,4,176500009,MISSION BBQ HARRISBURG,5045,JONESTOWN ROAD,HARRISBURG,17112-2922,3/29/2017,641.6533333333333,35.626666666666665,40.30812918842734,-76.80440823,641.6533333333333,35.626666666666665,201
650,2,1,2,,2,1,2,196500035,DOMINO'S PIZZA HARRISBURG,479,EISENHOWER BOULEVARD,HARRISBURG,17111-2302,12/17/2019,239,0,40.25009048030922,-76.81355225,239,0,483
650,2,3,5,,2,3,5,196500017,J&B'S GRILL ,14,NORTH MAIN STREET,SHREWSBURY,17361-1322,6/20/2019,216.63666666666668,0,39.7691774,-76.6802365,216.63666666666668,0,547
650,2,4,1,,2,4,1,176500014,ECHO FREZCO SHREWSBURY,634,SHREWSBURY COMMONS AVENUE,SHREWSBURY,17361,4/13/2017,215,0,39.7704283,-76.6700186,215,0,330
650,2,2,4,,2,2,4,196500007,DOMINO'S PIZZA YORK #4785,1539,MOUNT ROSE AVENUE,YORK,17403,1/30/2019,195,0,39.95888293939262,-76.69484773,195,0,237
650,2,3,4,,2,3,4,6501030,MISSION BBQ YORK,970,LOUCKS ROAD,YORK,17404-2273,6/26/2013,1053.6333333333332,53.44,39.97947843505225,-76.75380567,1053.6333333333332,53.44,340
650,2,2,3,,2,2,3,650994,GUADALAJARA RESTAURANT,2600,EAST MARKET STREET,YORK,17402-2425,4/3/2013,215,0,39.975044902757965,-76.67561651,215,0,244
650,2,3,1,,2,3,1,186500032,DOMINO'S PIZZA YORK  #4778,930,SOUTH RICHLAND AVENUE,YORK,17403,12/17/2018,269.42333333333335,0,39.94343837763737,-76.74044653,269.42333333333335,0,57
650,2,3,3,,2,3,3,186500033,DOMINO'S PIZZA YORK #4783,351,LOUCKS ROAD,YORK,17404,12/17/2018,319.84,0,39.9847061,-76.7410469,319.84,0,43
650,2,3,2,,2,3,2,176500027,DISTRICT THAI,1057,NORTH GEORGE STREET,YORK,17404,9/8/2017,271.25,31.25,39.97752041,-76.73297913,271.25,31.25,46
650,2,2,5,,2,2,5,236500024,AA TO ZZ CHILD CARE,215,SAINT CHARLES WAY,YORK,17402-4643,9/11/2023,165.7,0,39.92731292656178,-76.69473382,165.7,0,49
650,3,3,1,,3,3,1,166500222,KECCO'S NEOPOLITAN,114,WESTMINSTER PIKE,REISTERSTOWN,21136,7/15/2016,368.16666666666663,51.75,39.4735969,-76.8332564,368.16666666666663,51.75,522
650,3,4,2,,3,4,2,156500214,MESSIAH COMMUNITY CHURCH,909,BERRYMANS LANE,REISTERSTOWN,21136-6010,6/29/2015,0,0,39.43243285,-76.83481175,0,0,151
650,3,4,1,,3,4,1,176500013,LA TOLTECA OWINGS MILLS,11515,REISTERSTOWN ROAD,OWINGS MILLS,21117-1815,4/13/2017,216.01,0,39.43892681818182,-76.8039097,216.01,0,46
650,1,6,8,,1,6,8,6501022,KABUTO,8813,PULASKI HIGHWAY,ESSEX,21221,6/10/2013,577.5666666666666,0,39.337309,-76.47892,577.5666666666666,0,181
650,2,11,6,,2,11,6,650866,YAMA SUSHI BAR BALTIMORE,1030,WEST 41ST STREET,BALTIMORE,21211,1/13/2012,262.2333333333333,0,39.33763438455957,-76.63480241,262.2333333333333,0,132
650,2,12,4,,2,12,4,65094406,MR CHAN'S SZECHUAN REST,1000,REISTERSTOWN ROAD,PIKESVILLE,21208-4206,3/6/2001,60,0,39.3728077,-76.7217617,60,0,73
650,2,10,5,,2,10,5,196500027,A1 SUSHI,438,E BELVEDERE AVE,BALTIMORE,21212,8/29/2019,0,0,39.36419053061225,-76.61104169,0,0,104
650,2,11,5,,2,11,5,186500012,18-8 SUSHI,727,WEST 40TH STREET,BALTIMORE,21211,5/3/2018,215,0,39.3351418,-76.62986254,215,0,118
650,2,11,4,,2,11,4,6503727,THE WINE SOURCE,3601,ELM AVENUE,BALTIMORE,21211-2402,11/1/2001,145.28333333333333,0,39.331704,-76.631168,145.28333333333333,0,37
650,2,10,8,,2,10,8,166500233,FIVE AND DIME ALE HOUSE,901,WEST 36TH STREET,BALTIMORE,21211,9/19/2016,0,0,39.33084435,-76.63136539,0,0,3
650,2,11,3,,2,11,3,65093180,SUZIE'S SOBA,1009,WEST 36TH STREET,BALTIMORE,21211-2416,7/14/1998,0,0,39.330878600000005,-76.63302681,0,0,5
650,2,7,1,,2,7,1,650768,CAFE SPICE INDIA CUISINE,10540,YORK ROAD,COCKEYSVILLE,21030,3/15/2011,334.4233333333333,0,39.47741595,-76.64338606,334.4233333333333,0,156
650,2,11,2,,2,11,2,650387,GOLDEN WEST ,1105,WEST 36TH STREET,BALTIMORE,21211,12/12/2006,903.4766666666666,147.7,39.330868550000005,-76.63400149,903.4766666666666,147.7,164
650,2,11,1,,2,11,1,216500039,GRANO PASTA BAR,1031,W 36TH ST,BALTIMORE,21210,11/1/2021,244.5333333333333,0,39.33101651020408,-76.63308118,244.5333333333333,0,164
650,1,14,2,,1,14,2,156500396,COSIMA,3000,FALLS ROAD,BALTIMORE,21211,11/4/2015,896.0433333333332,315.8,39.3227112,-76.6305328,896.0433333333332,315.8,12
650,2,11,7,,2,11,7,206500003,THE WINE COLLECTIVE,1700,WEST 41ST STREET,BALTIMORE,21211-1431,1/17/2020,440,0,39.335269,-76.64360565,440,0,209
650,1,13,8,,1,13,8,236500018,BE.BIM KOREAN BBQ,301,WEST 29TH STREET,BALTIMORE,21211-2910,6/19/2023,240,0,39.3217098,-76.6221426,240,0,23
650,2,10,7,,2,10,7,166500242,DYLAN'S OYSTER CELLAR,3601,CHESTNUT AVENUE,BALTIMORE,21211-2530,10/25/2016,212.08,0,39.33135175,-76.62914812,212.08,0,14
650,2,10,3,,2,10,3,650502,HOUSE OF KABOB,8025,HARFORD ROAD,PARKVILLE,21234,9/4/2008,224.11666666666665,9.116666666666667,39.3758319,-76.540707,224.11666666666665,9.116666666666667,55
650,1,5,7,,1,5,7,246500008,JUICY KING CRAB,7916,BELAIR ROAD,NOTTINGHAM,21236,2/27/2024,0,0,39.373811,-76.5117344,0,0,59
650,2,9,5,,2,9,5,650723,REMO'S OF N.Y.,8811,WALTHAM WOODS ROAD,PARKVILLE,21234,1/1/2011,254.98333333333332,0,39.400206496000585,-76.54101791,254.98333333333332,0,32
650,2,9,4,,2,9,4,65094668,LUCKY INN RESTAURANT,8924,WALTHAM WOODS ROAD,PARKVILLE,21234,7/18/1990,225,0,39.402413,-76.53978,225,0,39
650,2,10,2,,2,10,2,156500024,EL TROVADOR MERCADO LATINO,2523,PUTTY HILL AVENUE,PARKVILLE,21234-4307,2/4/2015,220.35666666666665,0,39.3890829,-76.5427335,220.35666666666665,0,111
650,2,9,6,,2,9,6,65093551,EL SALTO PARKVILLE,8816,WALTHAM WOODS ROAD,PARKVILLE,21234-2402,4/20/1999,271.95,0,39.40031632710912,-76.54119231,271.95,0,317
650,2,10,1,,2,10,1,206500010,URBAN CRAB SHACK,1991,EAST JOPPA ROAD,PARKVILLE,21234-2733,9/16/2020,618.4766666666666,70.95,39.3975674,-76.5437089,618.4766666666666,70.95,3
650,2,9,2,,2,9,2,246500001,BIRRIA LOVE,1742,EAST JOPPA ROAD,PARKVILLE,21234-3620,1/9/2024,82,0,39.3987508,-76.5591224,82,0,248
650,1,12,8,,1,12,8,226500023,ROSINA'S GOURMET,300,EAST LOMBARD STREET,BALTIMORE,21202-3219,9/27/2022,297,0,39.287978,-76.610647,297,0,127
650,2,17,3,,2,17,3,246500005,BLACK FLAG SOCIAL HOUSE,2050,MARRIOTTSVILLE ROAD,MARRIOTTSVILLE,21104,1/9/2024,608.5366666666666,133.61666666666665,39.313687361359534,-76.8986248,608.5366666666666,133.61666666666665,248
650,2,17,5,,2,17,5,166500231,ASIAN COURT,11105,RESORT ROAD,ELLICOTT CITY,21042,8/31/2016,324.48333333333335,0,39.29930595,-76.89746455,324.48333333333335,0,135
650,2,17,4,,2,17,4,156500138,PAPER LANTERN ,2020,MARRIOTTSVILLE ROAD,MARRIOTTSVILLE,21104,4/27/2015,230,0,39.31613595,-76.89955723,230,0,17
650,3,9,1,,3,9,1,216500003,KUNG FU TEA,14708,BALTIMORE AVENUE,LAUREL,20707-5008,1/4/2021,0,0,39.0940655,-76.85785456,0,0,166
650,1,5,1,,1,5,1,650944,MISSION BBQ NOTTINGHAM,4132,EAST JOPPA ROAD,NOTTINGHAM,21236,10/22/2012,755.71,233.5933333333333,39.399879,-76.482713,755.71,233.5933333333333,230
650,2,8,8,,2,8,8,226500026,LEDO PIZZA TOWSON,1238,PUTTY HILL AVE STE 104,TOWSON,21286,9/28/2022,339.6166666666666,94.61666666666666,39.393822,-76.58336,339.6166666666666,94.61666666666666,81
650,2,8,3,,2,8,3,206500014,MISSION BBQ - TOWSON,740,YORK ROAD,TOWSON,21204-2503,11/5/2020,778.97,147.24,39.4055607,-76.6073843,778.97,147.24,19
650,2,12,8,,2,12,8,166500235,MISSION BBQ OWINGS MILLS,10140,REISTERSTOWN ROAD,OWINGS MILLS,21117-3815,9/23/2016,738.9566666666666,107.22666666666666,39.415009924494775,-76.77378754,738.9566666666666,107.22666666666666,135
650,2,15,1,,2,15,1,65093711,DOUBLE T DINER - CATONSVILLE,6300,BALTIMORE NATIONAL PIKE,CATONSVILLE,21228-3901,10/5/1999,1715.4233333333332,541.7,39.283963,-76.754584,1715.4233333333332,541.7,166
650,1,5,2,,1,5,2,6501006,THE ALL AMERICAN STEAKHOUSE,3615,EAST JOPPA ROAD,PARKVILLE,21234,5/1/2013,1202.14,180.33333333333331,39.395068,-76.500756,1202.14,180.33333333333331,236
650,1,10,8,,1,10,8,196500008,SWEETGREEN - HARBOR EAST,1306,FLEET STREET,BALTIMORE,21231,1/30/2019,1054.9733333333331,706.6466666666666,39.28439665306123,-76.59897027,1054.9733333333331,706.6466666666666,151
650,2,13,1,,2,13,1,650554,KAVKAZ KEBAB,10902,BOULEVARD CIRCLE,OWINGS MILLS,21117,6/1/2009,215,0,39.42596219920029,-76.77940242,215,0,222
650,2,13,2,,2,13,2,156500358,EDOMAE SUSHI,10995,OWINGS MILLS BOULEVARD,OWINGS MILLS,21117,9/15/2015,205,0,39.4263431,-76.7794245,205,0,71
650,2,13,4,,2,13,4,156500029,LEDO PIZZA OF OWINGS MILLS,9706,GROFFS MILL DRIVE,OWINGS MILLS,21117,2/13/2015,210,0,39.40483292857143,-76.81014826,210,0,26
650,2,13,6,,2,13,6,186500035,DOMINO'S PIZZA RANDALLSTOWN #4696,3502,BRENBROOK DRIVE,RANDALLSTOWN,21133-4902,12/17/2018,195,0,39.3626936,-76.7869732,195,0,86
650,2,13,3,,2,13,3,236500004,AKIRA RAMEN - OWINGS MILLS,10200,MILL RUN CIRCLE,OWINGS MILLS,21117,1/18/2023,225,0,39.404811,-76.79106,225,0,72
650,2,13,5,,2,13,5,236500007,NOT JUST CRAB,8731,LIBERTY ROAD,RANDALLSTOWN,21133,2/10/2023,481.0566666666667,0,39.3636976,-76.7860878,481.0566666666667,0,17
650,2,8,1,,2,8,1,650399,BLUE STONE RESTAURANT,11,WEST AYLESBURY ROAD,TIMONIUM,21093-4102,2/16/2007,2518.503333333333,0,39.4338621,-76.6281895,2518.503333333333,0,159
650,3,3,4,,3,3,4,650946,MICHAEL'S CAFE,2119,YORK ROAD,TIMONIUM,21093-3110,11/2/2012,3047.01,1025.9166666666665,39.44194972,-76.62697112,3047.01,1025.9166666666665,345
650,3,10,2,,3,10,2,65052084,NOTTINGHAM'S,8850,STANFORD BOULEVARD,COLUMBIA,21045,7/10/2006,905.8,211.33333333333334,39.19044255,-76.81524209,905.8,211.33333333333334,324
650,3,10,3,,3,10,3,650856,THE MANGO GROVE RESTAURANT,8865,STANFORD BOULEVARD,COLUMBIA,21045,12/1/2011,262.5,0,39.1909771,-76.81815554,262.5,0,63
650,3,10,1,,3,10,1,650494,ANLOI RESTAURANT,7104,MINSTREL WAY,COLUMBIA,21045-5539,7/29/2008,337.89,0,39.1773963,-76.8423714,337.89,0,324
650,3,13,8,,3,13,8,650810,RANGOLI RESTAURANT,7791,ARUNDEL MILLS BOULEVARD,HANOVER,21076,8/15/2011,678.68,157.13333333333333,39.15385192886801,-76.7425567,678.68,157.13333333333333,90
650,3,14,1,,3,14,1,196500030,MAI DRAGON,2647,ANNAPOLIS ROAD,HANOVER,21076-1262,10/4/2019,250.23333333333335,0,39.13380115570784,-76.74412965,250.23333333333335,0,67
650,3,13,7,,3,13,7,226500001,TOMO ASIAN CUISINE,7698,DORCHESTER BOULEVARD,HANOVER,21076-1946,1/18/2022,240,0,39.1546706,-76.7424557,240,0,98
650,3,9,3,,3,9,3,226500005,CHOPS BY RERA,10983,GUILFORD ROAD,JESSUP,20701,4/18/2022,174.89333333333332,0,39.130231,-76.79019,174.89333333333332,0,123
650,3,11,5,,3,11,5,226500024,NORA'S KABOB COLUMBIA,10300,LITTLE PATUXENT PARKWAY,COLUMBIA,21044,9/5/2022,280.7,40.7,39.2158379,-76.85999539,280.7,40.7,115
650,3,9,6,,3,9,6,236500025,FLAVORS OF INDIA,7185,COLUMBIA GATEWAY DRIVE,COLUMBIA,21046,9/11/2023,246,0,39.1834423,-76.80500411,246,0,11
650,3,13,1,,3,13,1,65022116,CHOPSTIXX CAFE,7260,MONTGOMERY ROAD,ELKRIDGE,21075-9100,9/10/2006,225,0,39.20869344,-76.72840905,225,0,332
650,3,12,8,,3,12,8,186500001,LEDO PIZZA OF ELKRIDGE,7190,TROY HILL DRIVE,ELKRIDGE,21075-7055,1/23/2018,598.7633333333333,271.76666666666665,39.1943167,-76.7498708,598.7633333333333,271.76666666666665,72
650,3,12,7,,3,12,7,650559,KATANA SUSHI ELKRIDGE,6060,MARSHALEE DRIVE,ELKRIDGE,21075-5991,6/1/2009,215,0,39.2090671,-76.77785965,215,0,25
650,3,9,5,,3,9,5,6501038,RUDY'S MEDITERRANEAN GRILL,7185,COLUMBIA GATEWAY DRIVE,COLUMBIA,21046,8/6/2013,360.35,14.166666666666668,39.1834423,-76.80500411,360.35,14.166666666666668,72
650,3,12,5,,3,12,5,650538,COAL FIRE PIZZA ELLICOTT CITY,5725,RICHARDS VALLEY ROAD,ELLICOTT CITY,21043,3/12/2009,871.4,427.23333333333335,39.214331900000005,-76.80190503,871.4,427.23333333333335,35
650,3,12,6,,3,12,6,650800,EAST MOON ASIAN BISTRO,5725,RICHARDS VALLEY ROAD,ELLICOTT CITY,21043,7/6/2011,314.08666666666664,0,39.214331900000005,-76.80190503,314.08666666666664,0,51
650,3,12,1,,3,12,1,650599,YAMA SUSHI ELLICOTT CITY,4725-G,DORSEY HALL DRIVE,ELLICOTT CITY,21042,12/18/2009,223.51,0,39.2426475,-76.8422261,223.51,0,267
650,3,10,4,,3,10,4,186500023,MAIWAND KABOB,6131,COLUMBIA CROSSING CIRCLE,COLUMBIA,21045-8208,8/31/2018,310.57666666666665,0,39.196142,-76.812704,310.57666666666665,0,43
650,2,9,7,,2,9,7,226500007,CHARM CITY BUFFET,2033,EAST JOPPA ROAD,PARKVILLE,21234,5/23/2022,1110.79,13.233333333333333,39.39846561902369,-76.54252231,1110.79,13.233333333333333,326
650,3,8,1,,3,8,1,166500213,MINT INDIAN CUISINE,12447,CLARKSVILLE PIKE,CLARKSVILLE,21029,6/2/2016,282.2266666666667,0,39.205480300000005,-76.94225343,282.2266666666667,0,401
650,3,7,2,,3,7,2,650354,CATTAIL CREEK COUNTRY CLUB,3600,CATTAIL CREEK DRIVE,GLENWOOD,21738-9648,9/11/2006,1880.44,384.76666666666665,39.272176,-77.043213,1880.44,384.76666666666665,311
650,3,7,4,,3,7,4,216500017,MARY'S LAND FARM,4979,SHEPPARD LANE,ELLICOTT CITY,21042,5/20/2021,75,0,39.23342754013487,-76.93903436,75,0,100
650,3,7,5,,3,7,5,236500012,MAIWAND KABOB - CLARKSVILLE,12165,CLARKSVILLE PIKE #300,CLARKSVILLE,21029,4/10/2023,246,0,39.21494,-76.933299,246,0,22
650,3,7,6,,3,7,6,156500003,KATANA SUSHI CLARKSVILLE,6343,TEN OAKS ROAD,CLARKSVILLE,21029,1/6/2015,271.84,0,39.2065349,-76.94535623,271.84,0,394
650,1,8,2,,1,8,2,146500016,JIMMY'S FAMOUS SEAFOOD,6526,HOLABIRD AVENUE,BALTIMORE,21224-6244,5/1/2014,2044.11,91.13333333333333,39.272453428571424,-76.53526516,2044.11,91.13333333333333,347
650,3,17,3,,3,17,3,65078800,GLORY DAYS GRILL - GLEN BURNIE,7939,RITCHIE HIGHWAY,GLEN BURNIE ,21060,12/20/2002,1539.0166666666667,913.3666666666667,39.13702395,-76.59850284,1539.0166666666667,913.3666666666667,255
650,3,19,2,,3,19,2,146500068,PARK TAVERN,580,GOVERNOR RITCHIE HIGHWAY,SEVERNA PARK ,21146,7/3/2014,1585.37,784.2,39.07556253846154,-76.54385623,1585.37,784.2,22
650,3,19,1,,3,19,1,6501026,MI PUEBLO II,554,GOVERNOR RITCHIE HIGHWAY,SEVERNA PARK ,21146,6/27/2013,646.0933333333334,0,39.077043456521736,-76.54516633,646.0933333333334,0,84
650,3,18,4,,3,18,4,6501010,LIFE PHO,484,RITCHIE HIGHWAY,SEVERNA PARK ,21146,5/7/2013,308.6166666666667,0,39.084673,-76.552625,308.6166666666667,0,336
650,3,19,6,,3,19,6,650918,PICANTILLO,4590,MOUNTAIN ROAD,PASADENA,21122-5330,8/14/2012,342.43,0,39.10715825711253,-76.48596987,342.43,0,0
650,3,18,2,,3,18,2,186500003,BONCHON PASADENA,8159,RITCHIE HIGHWAY,PASADENA,21122,1/30/2018,244.97666666666663,0,39.12077170926556,-76.58461368,244.97666666666663,0,259
650,3,18,1,,3,18,1,196500036,EAST WEST BISTRO ,8151,RITCHIE HIGHWAY,PASADENA,21122,12/12/2019,422.25,45.35,39.120951969670585,-76.58477951,422.25,45.35,63
650,3,19,3,,3,19,3,216500007,PASSION ASIAN BISTRO,25,MAGOTHY BEACH ROAD,PASADENA,21122-4461,2/11/2021,265.5833333333333,0,39.12103763930174,-76.51730502,265.5833333333333,0,60
650,2,17,1,,2,17,1,166500215,MISSION BBQ ELLICOTT CITY,3410,PLUMTREE DRIVE,ELLICOTT CITY,21042,6/15/2016,877.7633333333332,98.45,39.27690908333333,-76.83577083,877.7633333333332,98.45,278
650,3,12,2,,3,12,2,156500186,GLORY DAYS GRILL - ELLICOTT CITY,10035,BALTIMORE NATIONAL PIKE,ELLICOTT CITY,21042,6/15/2015,1395.4533333333331,643.0833333333334,39.27785565,-76.85755177,1395.4533333333331,643.0833333333334,324
650,2,17,2,,2,17,2,65085524,SAKURA OF ELLICOTT CITY,10040,BALTIMORE NATIONAL PIKE,ELLICOTT CITY,21042,1/14/2003,657.02,252.23333333333332,39.28120845,-76.85728831,657.02,252.23333333333332,195
650,2,15,8,,2,15,8,166500029,NIKO,3570,SAINT JOHNS LANE,ELLICOTT CITY,21042,2/1/2016,230,0,39.2725436,-76.8267994,230,0,167
650,2,17,7,,2,17,7,65093606,DOUBLE T DINER - ELLICOTT CITY,10055,BALTIMORE NATIONAL PIKE,ELLICOTT CITY,21042-3611,6/29/1999,2324.45,1517.3666666666666,39.27914997771793,-76.85837279,2324.45,1517.3666666666666,0
650,2,15,4,,2,15,4,226500003,THE ALL AMERICAN STEAKHOUSE - ELLICOTT CITY,8450,BALTIMORE NATIONAL PIKE,ELLICOTT CITY,21043,2/4/2022,1596.28,628.1666666666666,39.2866496,-76.80654242,1596.28,628.1666666666666,183
650,3,10,6,,3,10,6,650934,ALE HOUSE COLUMBIA,6480,DOBBIN CENTER WAY,COLUMBIA,21045,10/5/2012,1754.7666666666664,801.0666666666666,39.19839485,-76.8198107,1754.7666666666664,801.0666666666666,224
650,3,10,5,,3,10,5,146500058,MISSION BBQ COLUMBIA,6270,COLUMBIA CROSSING CIRCLE,COLUMBIA,21045,6/24/2014,931.7033333333331,130.5,39.19868547176594,-76.81438263,931.7033333333331,130.5,29
650,1,15,4,,1,15,4,650615,N.M. CARROLL MANOR,701,NORTH ARLINGTON AVENUE,BALTIMORE,21217-2455,3/1/2010,335,0,39.29712945,-76.63546908,335,0,248
650,3,18,6,,3,18,6,216500023,APRIL'S TABLE ,544,BALTIMORE ANNAPOLIS BOULEVARD,SEVERNA PARK ,21146,7/1/2021,260,0,39.07466443302522,-76.5485092,260,0,275
650,3,18,3,,3,18,3,216500036,THE SOCIAL ,139,RITCHIE HIGHWAY,SEVERNA PARK ,21146,10/7/2021,470.72,9.216666666666667,39.101924,-76.565523,470.72,9.216666666666667,269
650,3,13,6,,3,13,6,226500004,PHO 5UP - HANOVER,1350,DORSEY ROAD,HANOVER,21076,1/24/2022,240,0,39.15942075,-76.71064957,240,0,205
650,2,16,2,,2,16,2,65091580,SHANNON'S SALOON & RESTAURANT,9338,BALTIMORE NATIONAL PIKE,ELLICOTT CITY,21042-2805,12/29/2003,2158.73,1366.5,39.278111550000006,-76.83347504,2158.73,1366.5,334
650,3,5,1,,3,5,1,650787,GLORY DAYS GRILL - ELDERSBURG,1348,LIBERTY ROAD,ELDERSBURG,21784-6411,4/29/2011,1250.41,646.85,39.40364468889953,-76.94974234,1250.41,646.85,292
650,2,16,4,,2,16,4,166500210,NORA'S KABOB ELLICOTT CITY,9338,BALTIMORE NATIONAL PIKE,ELLICOTT CITY,21042-2805,5/16/2016,240.6,20.6,39.278111550000006,-76.83347504,240.6,20.6,499
650,3,12,3,,3,12,3,156500402,ZEN GARDEN,10039,BALTIMORE NATIONAL PIKE,ELLICOTT CITY,21042,12/3/2015,136.66666666666666,0,39.27867665,-76.85752194,136.66666666666666,0,128
650,2,15,6,,2,15,6,176500010,K POCHA,8801,BALTIMORE NATIONAL PIKE,ELLICOTT CITY,21043,3/30/2017,215,0,39.27753125,-76.81781375,215,0,156
650,2,16,3,,2,16,3,650433,HAN JOONG KWAN,9338,BALTIMORE NATIONAL PIKE,ELLICOTT CITY,21042-2805,8/15/2007,288.00333333333333,21.1,39.278111550000006,-76.83347504,288.00333333333333,21.1,170
650,1,6,7,,1,6,7,65094414,DELLIS' BAR & GRILL,8776,PHILADELPHIA ROAD,ROSEDALE,21237,4/25/2001,1083.6733333333332,360.9333333333333,39.3410786,-76.4845167,1083.6733333333332,360.9333333333333,185
650,1,3,6,,1,3,6,146500020,TACO LOVE GRILL,11550,PHILADELPHIA ROAD,WHITE MARSH,21162,5/16/2014,895.26,248.21666666666664,39.4067895,-76.4138085,895.26,248.21666666666664,268
650,1,7,1,,1,7,1,156500451,ENDY'S GRILL,1328,EASTERN BOULEVARD,ESSEX,21221,12/30/2015,285,0,39.31571524983195,-76.46051428,285,0,309
650,1,7,2,,1,7,2,186500026,WOODY'S PUB GRUB,11,MARGARET AVENUE,ESSEX,21221-6704,9/21/2018,0,0,39.30823755,-76.47422198,0,0,78
650,2,11,8,,2,11,8,216500020,O'FISHEL KOSHER CATERERS ,7000,ROCKLAND HILLS DRIVE,PIKESVILLE,21209-1112,3/15/2021,63,0,39.38492,-76.667581,63,0,221
650,3,13,2,,3,13,2,216500011,HEAVY SEAS BREWING ,4615,HOLLINS FERRY ROAD,HALETHORPE,21227-4624,3/30/2021,260,0,39.2307539,-76.6753277,260,0,225
650,3,2,4,,3,2,4,216500010,MISSION BBQ - WESTMINSTER,584,JERMOR LANE,WESTMINSTER,21157-6126,2/22/2021,881.2733333333333,190.51,39.565929094812105,-76.97884004,881.2733333333333,190.51,557
650,3,15,5,,3,15,5,650616,LEDO PIZZA OF GLEN BURNIE,16,EAST ORDNANCE ROAD,GLEN BURNIE ,21060,2/23/2010,320.46666666666664,85.46666666666667,39.19361860121379,-76.61217131,320.46666666666664,85.46666666666667,172
650,3,15,6,,3,15,6,6501032,YAMA SUSHI BAR GLEN BURNIE,6714,RITCHIE HIGHWAY,GLEN BURNIE ,21061-2870,7/17/2013,270.0433333333333,0,39.19199580392065,-76.61375783,270.0433333333333,0,92
650,3,17,1,,3,17,1,146500247,MISSION BBQ GLEN BURNIE,7748,RITCHIE HIGHWAY,GLEN BURNIE ,21061-4378,11/25/2014,1023.0233333333333,423.27333333333337,39.15168965,-76.61402916,1023.0233333333333,423.27333333333337,527
650,3,15,4,,3,15,4,6501057,LITTLE INDIA CAFE,20,EAST ORDNANCE ROAD,GLEN BURNIE ,21060,9/24/2013,316.35,27.35,39.19361877298917,-76.61210226,316.35,27.35,218
650,3,16,5,,3,16,5,216500005,CRAZY CRAB,805,AQUAHART ROAD,GLEN BURNIE ,21061-3968,1/14/2021,548.8066666666666,64.05,39.15259581632653,-76.61733147,548.8066666666666,64.05,521
650,2,5,1,,2,5,1,650862,THE ORIENT RESTAURANT BEL AIR,15,NORTH MAIN STREET,BEL AIR,21014-3537,12/12/2011,213.82666666666665,0,39.53690693563868,-76.34973342,213.82666666666665,0,478
650,2,5,3,,2,5,3,65097161,SAKURA OF BEL AIR,615,BELAIR ROAD,BEL AIR,21014,10/12/2001,487.1366666666666,126.43333333333332,39.5247114,-76.3533539,487.1366666666666,126.43333333333332,430
650,1,3,1,,1,3,1,650814,SIZZLING BOMBAY,2108,OLD EMMORTON ROAD,BEL AIR,21015-6800,8/2/2011,240,0,39.4936772,-76.322036,240,0,440
650,2,6,1,,2,6,1,216500035,MISSION BBQ - BEL AIR ,627,BEL AIR ROAD,BEL AIR,21014,10/14/2021,783.65,89.06666666666666,39.5087984,-76.3803281,783.65,89.06666666666666,42
650,1,2,6,,1,2,6,236500001,HUO GUO BEL AIR,5,BEL AIR S PKWY,BEL AIR,21015,12/30/2022,478.52,0,39.49734305,-76.32561232,478.52,0,39
650,1,7,5,,1,7,5,650470,SCOOZZI'S RESTAURANT,7625,GERMAN HILL ROAD,DUNDALK,21222,4/15/2008,399,0,39.279619800000006,-76.5021583,399,0,53
650,1,7,6,,1,7,6,650894,HIBACHI GRILL & BUFFET,7911,EASTERN AVENUE,BALTIMORE ,21224-2141,6/11/2012,1010.0766666666665,0,39.29584366066492,-76.50809646,1010.0766666666665,0,390
650,1,4,8,,1,4,8,650936,PHO 7 RICH,4136,EAST JOPPA ROAD,NOTTINGHAM,21236-2286,10/10/2012,246.98,0,39.399034,-76.481658,246.98,0,641
650,1,7,4,,1,7,4,65047797,BOULEVARD DINER,1660,MERRITT BOULEVARD,DUNDALK,21222,4/4/2002,1945.4,796.9833333333333,39.2707756,-76.5035391,1945.4,796.9833333333333,284
650,1,4,1,,1,4,1,6501056,BOMBAY NIGHTS,5007,HONEYGO CENTER DRIVE,PERRY HALL ,21128,5/1/2013,275,0,39.404683,-76.4431282,275,0,134
650,1,8,1,,1,8,1,236500003,LAS ESPERANZAS CAFE 3 ,6500,EASTERN AVE,BALTIMORE,21224,1/3/2023,347.66333333333336,0,39.2889002,-76.5360656,347.66333333333336,0,453
650,3,2,1,,3,2,1,166500228,KATANA SUSHI WESTMINSTER,410,MEADOW CREEK DRIVE,WESTMINSTER,21158,8/15/2016,220.71666666666664,10.716666666666665,39.59003469509169,-77.01010789,220.71666666666664,10.716666666666665,35
650,3,2,3,,3,2,3,206500004,WESTMINSTER ELKS LODGE,538,GORSUCH ROAD,WESTMINSTER,21157-6530,1/24/2020,396.2666666666667,136.26666666666665,39.570372388562085,-76.97906542,396.2666666666667,136.26666666666665,111
650,3,2,2,,3,2,2,65048493,SAKURA OF WESTMINSTER,5,WESTMINSTER SHOPPING CENTER,WESTMINSTER,21157,9/25/2003,646.7333333333332,249.98333333333332,39.5816,-76.989005,646.7333333333332,249.98333333333332,152
650,3,2,5,,3,2,5,216500038,OLD WESTMINSTER WINERY,1550,OLD WESTMINSTER RD,WESTMINSTER,21157,11/1/2021,349.75,0,39.53167926952061,-77.03331954,349.75,0,462
650,3,6,1,,3,6,1,226500006,TONY LOCOS,710,LISBON CENTER DR,SYKESVILLE,21797,4/18/2022,678.2366666666667,107.48333333333333,39.3491531,-77.06707164,678.2366666666667,107.48333333333333,277
650,2,12,7,,2,12,7,236500005,SAKE JAPANESE STEAKHOUSE,10090,REISTERSTOWN ROAD,OWINGS MILLS,21117,1/26/2023,753.6266666666667,0,39.41232975,-76.77350656,753.6266666666667,0,382
650,2,16,5,,2,16,5,186500006,HANG ARI,9380,BALTIMORE NATIONAL PIKE,ELLICOTT CITY,21042,3/1/2018,240.39,0,39.27827635,-76.8347871,240.39,0,598
650,3,10,7,,3,10,7,226500022,TAICHI BUBBLE TEA,6250,"COLUMBIA CROSSING CIRCLE
STE D",COLUMBIA,21045,8/20/2022,240,0,39.206042,-76.828234,240,0,256
650,2,16,1,,2,16,1,216500027,KUNG FU TEA ,9210,BALTIMORE NATIONAL PIKE,ELLICOTT CITY,21042,8/6/2021,160.4,160.4,39.27956025,-76.83124593,160.4,160.4,423
650,3,18,5,,3,18,5,206500012,ROMILOS,478A,RITCHIE HIGHWAY,SEVERNA PARK ,21146,10/21/2020,305.4266666666667,0,39.081598,-76.550917,305.4266666666667,0,90
650,2,17,6,,2,17,6,186500007,SIROO & JUK STORY,10176,BALTIMORE NATIONAL PIKE,ELLICOTT CITY,21042,3/7/2018,266.78,0,39.28037985,-76.86322429,266.78,0,268
650,3,17,4,,3,17,4,65094262,SAKURA OF GLEN BURNIE,34,MOUNTAIN ROAD,GLEN BURNIE ,21060-7974,12/5/2000,619.38,301.75,39.13564852950231,-76.59475004,619.38,301.75,327
650,3,17,5,,3,17,5,166500126,GENERAL HOUSE,60,MOUNTAIN ROAD,GLEN BURNIE ,21060-7974,3/10/2016,230,0,39.13544796868857,-76.59333807,230,0,63
650,2,15,7,,2,15,7,226500028,BBQ CHICKEN,8801,BALTIMORE NATIONAL PIKE,ELLICOTT CITY,21043,10/3/2022,268.18333333333334,0,39.27753125,-76.81781375,268.18333333333334,0,6
650,1,15,5,,1,15,5,206500007,FAYETTE HOUSE ,15,SOUTH FULTON AVENUE,BALTIMORE,21217,5/4/2020,239,0,39.28792411111112,-76.64509433,239,0,203
650,3,7,3,,3,7,3,650514,TEN OAKS TAVERN,3900,TEN OAKS ROAD,GLENELG,21737,10/27/2008,391.07,0,39.2645504,-76.98696795,391.07,0,417
650,3,5,7,,3,5,7,226500002,DANDELION BAKERY,7556,WEST MAIN STREET,SYKESVILLE,21784-7313,1/28/2022,289.43,20.166666666666664,39.365609,-76.969545,289.43,20.166666666666664,354
650,2,15,5,,2,15,5,65062066,LEDO PIZZA OF ELLICOTT CITY,8480,BALTIMORE NATIONAL PIKE,ELLICOTT CITY,21043,11/18/2002,468.96666666666664,143.58333333333331,39.28473971794872,-76.80738551,468.96666666666664,143.58333333333331,292
650,3,5,6,,3,5,6,650362,AMANTE PIZZA & PASTA,21,LIBERTY ROAD,SYKESVILLE,21784-8633,8/17/2006,370.4533333333333,0,39.42267424798062,-76.99569787,370.4533333333333,0,147
650,3,5,3,,3,5,3,166500009,G.L. SHACKS ELDERSBURG,1207,LIBERTY ROAD,ELDERSBURG,21784,1/15/2016,404.95,163.46666666666664,39.404042,-76.95402489,404.95,163.46666666666664,45
650,3,5,2,,3,5,2,166500207,LOS AZTECAS,1213,LIBERTY ROAD,SYKESVILLE,21784,5/2/2016,629.95,0,39.40478605080641,-76.95284252,629.95,0,166
650,3,4,3,,3,4,3,650464,JY TOKYO MARKET,1437,LIBERTY LAKE DRIVE,ELDERSBURG,21784,2/13/2008,264.3333333333333,0,39.3922071,-76.9195727,264.3333333333333,0,48
650,3,4,6,,3,4,6,166500203,CHINA DRAGON,6300,GEORGETOWN BOULEVARD,SYKESVILLE,21784,4/12/2016,215,0,39.4012803,-76.9472392,215,0,475
650,3,4,5,,3,4,5,166500218,NORA'S KABOB ELDERSBURG,6300,GEORGETOWN BOULEVARD,SYKESVILLE,21784,6/29/2016,324.59666666666664,63.13333333333333,39.4012803,-76.9472392,324.59666666666664,63.13333333333333,2
650,3,5,5,,3,5,5,216500018,KATANA SUSHI - ELDERSBURG,5959,EXCHANGE DRIVE,ELDERSBURG,21784-9255,5/26/2021,270.4,45.4,39.4165034,-76.9782006,270.4,45.4,154
650,3,5,4,,3,5,4,226500011,KINARA INDIAN CUISINE & BAR,5957,EXCHANGE DR,ELDERSBURG,21784,6/13/2022,411.5466666666667,0,39.4165034,-76.9782006,411.5466666666667,0,26
650,3,4,4,,3,4,4,236500013,TAICHI BUBBLE TEA,6300,GEORGETOWN BLVD,ELDERSBURG,21784,5/10/2023,246,0,39.4012803,-76.9472392,246,0,7
